{
   "type": "FeatureCollection",
   "features": [
  {
    "type": "Feature",
    "geometry": {
       "type": "Point",
       "coordinates":  [ -71.318022,41.489865 ]
    },
    "properties": {
    "name":"Newport Marriott",
    "street":"25 America's Cup Ave",
    "city":"Newport",
    "state":"RI"
    }
  },
  {
    "type": "Feature",
    "geometry": {
       "type": "Point",
       "coordinates":  [ -71.31495,41.488604 ]
    },
    "properties": {
    "name":"America's Cup Inn",
    "street":"6 Mary St",
    "city":"Newport",
    "state":"RI"
    }
  },
  {
    "type": "Feature",
    "geometry": {
       "type": "Point",
       "coordinates":  [ -71.316774,41.48761 ]
    },
    "properties": {
    "name":"The Newport Harbor Hotel and Marina",
    "street":"49 America's Cup Ave",
    "city":"Newport",
    "state":"RI"
    }
  },
  {
    "type": "Feature",
    "geometry": {
       "type": "Point",
       "coordinates":  [ -71.31524,41.484377 ]
    },
    "properties": {
    "name":"Newport Bay Club & Hotel",
    "street":"337 Thames St",
    "city":"Newport",
    "state":"RI"
    }
  },
  {
    "type": "Feature",
    "geometry": {
       "type": "Point",
       "coordinates":  [ -71.316065,41.484001 ]
    },
    "properties": {
    "name":"Forty 1Â° North",
    "street":"351 Thames St",
    "city":"Newport",
    "state":"RI"
    }
  },
  {
    "type": "Feature",
    "geometry": {
       "type": "Point",
       "coordinates":  [ -71.312681,41.481078 ]
    },
    "properties": {
    "name":"The Newport Inn",
    "street":"353 Spring St",
    "city":"Newport",
    "state":"RI"
    }
  },
  {
    "type": "Feature",
    "geometry": {
       "type": "Point",
       "coordinates":  [ -71.314476,41.47926 ]
    },
    "properties": {
    "name":"Bouchard Inn & Restaurant",
    "street":"505 Thames St",
    "city":"Newport",
    "state":"RI"
    }
  },
  {
    "type": "Feature",
    "geometry": {
       "type": "Point",
       "coordinates":  [ -71.315508,41.477501 ]
    },
    "properties": {
    "name":"Wellington Resort",
    "street":"551 Thames St",
    "city":"Newport",
    "state":"RI"
    }
  },
  {
    "type": "Feature",
    "geometry": {
       "type": "Point",
       "coordinates":  [ -71.314178,41.476646 ]
    },
    "properties": {
    "name":"The Firehouse Inn",
    "street":"595 Thames St",
    "city":"Newport",
    "state":"RI"
    }
  },
  {
    "type": "Feature",
    "geometry": {
       "type": "Point",
       "coordinates":  [ -71.317358,41.466754 ]
    },
    "properties": {
    "name":"Gardenview Bed & Breakfast",
    "street":"8 Binney St",
    "city":"Newport",
    "state":"RI"
    }
  },
  {
    "type": "Feature",
    "geometry": {
       "type": "Point",
       "coordinates":  [ -71.311379,41.476411 ]
    },
    "properties": {
    "name":"Artful Lodger Inn",
    "street":"503 Spring St",
    "city":"Newport",
    "state":"RI"
    }
  },
  {
    "type": "Feature",
    "geometry": {
       "type": "Point",
       "coordinates":  [ -71.306091,41.476853 ]
    },
    "properties": {
    "name":"Ivy Lodge",
    "street":"12 Clay St",
    "city":"Newport",
    "state":"RI"
    }
  },
  {
    "type": "Feature",
    "geometry": {
       "type": "Point",
       "coordinates":  [ -71.302869,41.483535 ]
    },
    "properties": {
    "name":"Victorian Ladies Inn",
    "street":"63 Memorial Blvd",
    "city":"Newport",
    "state":"RI"
    }
  },
  {
    "type": "Feature",
    "geometry": {
       "type": "Point",
       "coordinates":  [ -71.297858,41.484734 ]
    },
    "properties": {
    "name":"The Chanler at Cliff Walk",
    "street":"117 Memorial Blvd",
    "city":"Newport",
    "state":"RI"
    }
  },
  {
    "type": "Feature",
    "geometry": {
       "type": "Point",
       "coordinates":  [ -71.307363,41.485239 ]
    },
    "properties": {
    "name":"The Attwater",
    "street":"22 Liberty St",
    "city":"Newport",
    "state":"RI"
    }
  },
  {
    "type": "Feature",
    "geometry": {
       "type": "Point",
       "coordinates":  [ -71.312925,41.484641 ]
    },
    "properties": {
    "name":"The Wynstone",
    "street":"232 Spring St",
    "city":"Newport",
    "state":"RI"
    }
  },
  {
    "type": "Feature",
    "geometry": {
       "type": "Point",
       "coordinates":  [ -71.313139,41.485656 ]
    },
    "properties": {
    "name":"Howland House Inn",
    "street":"205 Spring St",
    "city":"Newport",
    "state":"RI"
    }
  },
  {
    "type": "Feature",
    "geometry": {
       "type": "Point",
       "coordinates":  [ -71.314199,41.486052 ]
    },
    "properties": {
    "name":"Almondy Inn",
    "street":"25 Pelham St",
    "city":"Newport",
    "state":"RI"
    }
  },
  {
    "type": "Feature",
    "geometry": {
       "type": "Point",
       "coordinates":  [ -71.314275,41.486366 ]
    },
    "properties": {
    "name":"Pelham Court Hotel",
    "street":"14 Pelham St",
    "city":"Newport",
    "state":"RI"
    }
  },
  {
    "type": "Feature",
    "geometry": {
       "type": "Point",
       "coordinates":  [ -71.312442,41.486428 ]
    },
    "properties": {
    "name":"Mill street Inn",
    "street":"75 Mill St",
    "city":"Newport",
    "state":"RI"
    }
  },
  {
    "type": "Feature",
    "geometry": {
       "type": "Point",
       "coordinates":  [ -71.311185,41.485893 ]
    },
    "properties": {
    "name":"Newport Blues Inn",
    "street":"96 Pelham St",
    "city":"Newport",
    "state":"RI"
    }
  },
  {
    "type": "Feature",
    "geometry": {
       "type": "Point",
       "coordinates":  [ -71.311423,41.485514 ]
    },
    "properties": {
    "name":"Adele Turner Inn",
    "street":"93 Pelham St",
    "city":"Newport",
    "state":"RI"
    }
  },
  {
    "type": "Feature",
    "geometry": {
       "type": "Point",
       "coordinates":  [ -71.311069,41.485483 ]
    },
    "properties": {
    "name":"Historic Hill Inn",
    "street":"105 Pelham St",
    "city":"Newport",
    "state":"RI"
    }
  },
  {
    "type": "Feature",
    "geometry": {
       "type": "Point",
       "coordinates":  [ -71.313479,41.488117 ]
    },
    "properties": {
    "name":"Grace Vanderbilt",
    "street":"41 Mary St",
    "city":"Newport",
    "state":"RI"
    }
  },
  {
    "type": "Feature",
    "geometry": {
       "type": "Point",
       "coordinates":  [ -71.313631,41.488649 ]
    },
    "properties": {
    "name":"Melville House Inn",
    "street":"39 Clarke St",
    "city":"Newport",
    "state":"RI"
    }
  }
]
}